{
      "name": "嘿糖",
      "dbid": 1,
      "longtitude": -79.4142546,
      "latitude": 43.7759808,
      "image": "",
      "describ": "",
      "type": "dessert",
      "likes": 0,
      "video_link": "https://youtu.be/TqX4gV9P6gs",
      "address": "5379 Yonge St, North York, ON M2N 5R6",
      "hours": "12: 00-23: 00"
}
{
      "name": "手作功夫茶",
      "dbid": 2,
      "longtitude": -79.4001598,
      "latitude": 43.6521065,
      "image": "",
      "describ": "",
      "type": "dessert",
      "likes": 0,
      "video_link": "https://youtu.be/D5Qogf1gbzc",
      "address": "264 Spadina Ave, Toronto, ON M5T 2E4",
      "hours": "11: 30-23: 30"
}
{
      "name": "川味轩",
      "dbid": 3,
      "longtitude": -79.4010065,
      "latitude": 43.6555915,
      "image": "",
      "describ": "",
      "type": "hot_pot",
      "likes": 0,
      "video_link": "https://youtu.be/w1RMzfpYXEk",
      "address": "359 Spadina Ave, Toronto, ON M5T 2G3",
      "hours": "11: 45-22: 30"
}
{
      "name": "1915兰州拉面",
      "dbid": 4,
      "longtitude": -79.3866757,
      "latitude": 43.6549636,
      "image": "",
      "describ": "",
      "type": "ramen",
      "likes": 0,
      "video_link": "https://youtu.be/OnI9HS709Xs",
      "address": "185 Dundas St W, Toronto, ON M5G 1C7",
      "hours": "11: 00-21: 45"
}
{
      "name": "重庆刘一手火锅DT店",
      "dbid": 5,
      "longtitude": -79.400176,
      "latitude": 43.6517002,
      "image": "",
      "describ": "",
      "type": "hot_pot",
      "likes": 0,
      "video_link": "https://youtu.be/16CowiDgItU",
      "address": "254 Spadina Ave, Toronto, ON M5T 3B3",
      "hours": "11: 30-23: 30"
}
{
      "name": "SNOW LAVA",
      "dbid": 6,
      "longtitude": -79.4014996,
      "latitude": 43.6569727,
      "image": "",
      "describ": "",
      "type": "dessert",
      "likes": 0,
      "video_link": "https://www.youtube.com/watch?v=K8SYyPu3tq8",
      "address": "413 Spadina Ave, Toronto, ON M5T 2G6",
      "hours": "13: 00-21: 30"
}
{
      "name": "口口香饺子馆",
      "dbid": 7,
      "longtitude": -79.3983516,
      "latitude": 43.6537786,
      "image": "",
      "describ": "",
      "type": "dumpling",
      "likes": 0,
      "video_link": "https://youtu.be/htr-gWqr5LI",
      "address": "79 Huron St, Toronto, ON M5T 2A8",
      "hours": "11: 00-22: 00"
}
{
      "name": "云尚米线",
      "dbid": 8,
      "longtitude": -79.3950274,
      "latitude": 43.6537169,
      "image": "",
      "describ": "",
      "type": "noodle",
      "likes": 0,
      "video_link": "https://youtu.be/RchwQiWK4EY",
      "address": "414 Dundas St W, Toronto, ON M5T 1G7",
      "hours": "11: 00-22: 30"
}
{
      "name": "R&K Salon",
      "dbid": 9,
      "longtitude": -79.4139026,
      "latitude": 43.7782718,
      "image": "",
      "describ": "",
      "type": "haircut",
      "likes": 0,
      "video_link": "https://youtu.be/ZLzVYMry0Q4",
      "address": "1 Holmes Ave, North York, ON M2N 4L8",
      "hours": "12: 00-21: 00"
}
{
      "name": "降龙爪爪",
      "dbid": 10,
      "longtitude": -79.4154815,
      "latitude": 43.7748786,
      "image": "",
      "describ": "",
      "type": "restaurant",
      "likes": 0,
      "video_link": "https://youtu.be/jTCaNt2ZDwM",
      "address": "15 Northtown Way Unit 20, North York, ON M2N 7A2",
      "hours": "12: 00-23: 30"
}
{
      "name": "COLA PET",
      "dbid": 11,
      "longtitude": -79.4178253,
      "latitude": 43.7782308,
      "image": "",
      "describ": "",
      "type": "pet",
      "likes": 0,
      "video_link": "https://youtu.be/g3eShGOFcEk",
      "address": "5465 Yonge St，North York, ON M2N 5S1",
      "hours": "12: 00-21: 00"
}
{
      "name": "云顶国医养生堂",
      "dbid": 12,
      "longtitude": -79.3973221,
      "latitude": 43.6533252,
      "image": "",
      "describ": "",
      "type": "massage",
      "likes": 0,
      "video_link": "https://youtu.be/TgdC0n-yCJY",
      "address": "419 Dundas St W, Toronto, ON M5T 1G6",
      "hours": "11: 00-21: 00"
}
{
      "name": "VRulez",
      "dbid": 13,
      "longtitude": -79.3883619,
      "latitude": 43.6551018,
      "image": "",
      "describ": "",
      "type": "game",
      "likes": 0,
      "video_link": "https://youtu.be/usVudfqNB_4",
      "address": "171 Dundas St W, Toronto, ON M5G 1C7",
      "hours": "13: 00-22: 00"
}
{
      "name": "ReNew Cosmetic Clinic",
      "dbid": 14,
      "longtitude": -79.4181745,
      "latitude": 43.7606514,
      "image": "",
      "describ": "",
      "type": "cosmetic",
      "likes": 0,
      "video_link": "https://youtu.be/aQMS7osyPQs",
      "address": "94 Sheppard Ave W, North York, ON M2N 1M5",
      "hours": "10: 00-19: 00"
}
